{
  "type": "FeatureCollection",
  "name": "mediterranean_cities",
  "features": [
    { "type": "Feature", "properties": { "name": "Barcelona", "country": "Spain", "tier": "major" }, "geometry": { "type": "Point", "coordinates": [2.1734, 41.3851] } },
    { "type": "Feature", "properties": { "name": "Valencia", "country": "Spain", "tier": "major" }, "geometry": { "type": "Point", "coordinates": [-0.3763, 39.4699] } },
    { "type": "Feature", "properties": { "name": "Murcia", "country": "Spain", "tier": "local" }, "geometry": { "type": "Point", "coordinates": [-1.1307, 37.9922] } },
    { "type": "Feature", "properties": { "name": "Málaga", "country": "Spain", "tier": "major" }, "geometry": { "type": "Point", "coordinates": [-4.4214, 36.7213] } },
    { "type": "Feature", "properties": { "name": "Marseille", "country": "France", "tier": "major" }, "geometry": { "type": "Point", "coordinates": [5.3698, 43.2965] } },
    { "type": "Feature", "properties": { "name": "Nice", "country": "France", "tier": "local" }, "geometry": { "type": "Point", "coordinates": [7.2620, 43.7102] } },
    { "type": "Feature", "properties": { "name": "Genoa", "country": "Italy", "tier": "major" }, "geometry": { "type": "Point", "coordinates": [8.9463, 44.4056] } },
    { "type": "Feature", "properties": { "name": "Rome", "country": "Italy", "tier": "major" }, "geometry": { "type": "Point", "coordinates": [12.4964, 41.9028] } },
    { "type": "Feature", "properties": { "name": "Naples", "country": "Italy", "tier": "major" }, "geometry": { "type": "Point", "coordinates": [14.2681, 40.8518] } },
    { "type": "Feature", "properties": { "name": "Bari", "country": "Italy", "tier": "local" }, "geometry": { "type": "Point", "coordinates": [16.8719, 41.1171] } },
    { "type": "Feature", "properties": { "name": "Palermo", "country": "Italy", "tier": "major" }, "geometry": { "type": "Point", "coordinates": [13.3613, 38.1157] } },
    { "type": "Feature", "properties": { "name": "Cagliari", "country": "Italy", "tier": "local" }, "geometry": { "type": "Point", "coordinates": [9.1106, 39.2238] } },
    { "type": "Feature", "properties": { "name": "Athens", "country": "Greece", "tier": "major" }, "geometry": { "type": "Point", "coordinates": [23.7275, 37.9838] } },
    { "type": "Feature", "properties": { "name": "Thessaloniki", "country": "Greece", "tier": "major" }, "geometry": { "type": "Point", "coordinates": [22.9444, 40.6401] } },
    { "type": "Feature", "properties": { "name": "Heraklion", "country": "Greece", "tier": "local" }, "geometry": { "type": "Point", "coordinates": [25.1442, 35.3387] } },
    { "type": "Feature", "properties": { "name": "Split", "country": "Croatia", "tier": "local" }, "geometry": { "type": "Point", "coordinates": [16.4402, 43.5081] } },
    { "type": "Feature", "properties": { "name": "Dubrovnik", "country": "Croatia", "tier": "local" }, "geometry": { "type": "Point", "coordinates": [18.0944, 42.6507] } },
    { "type": "Feature", "properties": { "name": "Tirana", "country": "Albania", "tier": "local" }, "geometry": { "type": "Point", "coordinates": [19.8187, 41.3275] } },
    { "type": "Feature", "properties": { "name": "Istanbul", "country": "Turkey", "tier": "major" }, "geometry": { "type": "Point", "coordinates": [28.9784, 41.0082] } },
    { "type": "Feature", "properties": { "name": "Izmir", "country": "Turkey", "tier": "major" }, "geometry": { "type": "Point", "coordinates": [27.1384, 38.4237] } },
    { "type": "Feature", "properties": { "name": "Antalya", "country": "Turkey", "tier": "major" }, "geometry": { "type": "Point", "coordinates": [30.7133, 36.8969] } },
    { "type": "Feature", "properties": { "name": "Adana", "country": "Turkey", "tier": "local" }, "geometry": { "type": "Point", "coordinates": [35.3213, 37.0000] } },
    { "type": "Feature", "properties": { "name": "Nicosia", "country": "Cyprus", "tier": "local" }, "geometry": { "type": "Point", "coordinates": [33.3823, 35.1856] } },
    { "type": "Feature", "properties": { "name": "Beirut", "country": "Lebanon", "tier": "major" }, "geometry": { "type": "Point", "coordinates": [35.5018, 33.8938] } },
    { "type": "Feature", "properties": { "name": "Tripoli", "country": "Lebanon", "tier": "local" }, "geometry": { "type": "Point", "coordinates": [35.8497, 34.4335] } },
    { "type": "Feature", "properties": { "name": "Haifa", "country": "Israel", "tier": "local" }, "geometry": { "type": "Point", "coordinates": [34.9896, 32.7940] } },
    { "type": "Feature", "properties": { "name": "Tel Aviv", "country": "Israel", "tier": "major" }, "geometry": { "type": "Point", "coordinates": [34.7818, 32.0853] } },
    { "type": "Feature", "properties": { "name": "Jerusalem", "country": "Israel/Palestine", "tier": "local" }, "geometry": { "type": "Point", "coordinates": [35.2137, 31.7683] } },
    { "type": "Feature", "properties": { "name": "Gaza", "country": "State of Palestine", "tier": "local" }, "geometry": { "type": "Point", "coordinates": [34.4668, 31.5017] } },
    { "type": "Feature", "properties": { "name": "Latakia", "country": "Syria", "tier": "local" }, "geometry": { "type": "Point", "coordinates": [35.7816, 35.5317] } },
    { "type": "Feature", "properties": { "name": "Alexandria", "country": "Egypt", "tier": "major" }, "geometry": { "type": "Point", "coordinates": [29.9187, 31.2001] } },
    { "type": "Feature", "properties": { "name": "Cairo", "country": "Egypt", "tier": "major" }, "geometry": { "type": "Point", "coordinates": [31.2357, 30.0444] } },
    { "type": "Feature", "properties": { "name": "Benghazi", "country": "Libya", "tier": "major" }, "geometry": { "type": "Point", "coordinates": [20.0667, 32.1167] } },
    { "type": "Feature", "properties": { "name": "Tripoli", "country": "Libya", "tier": "major" }, "geometry": { "type": "Point", "coordinates": [13.1913, 32.8872] } },
    { "type": "Feature", "properties": { "name": "Tunis", "country": "Tunisia", "tier": "major" }, "geometry": { "type": "Point", "coordinates": [10.1815, 36.8065] } },
    { "type": "Feature", "properties": { "name": "Sfax", "country": "Tunisia", "tier": "local" }, "geometry": { "type": "Point", "coordinates": [10.7603, 34.7406] } },
    { "type": "Feature", "properties": { "name": "Algiers", "country": "Algeria", "tier": "major" }, "geometry": { "type": "Point", "coordinates": [3.0588, 36.7538] } },
    { "type": "Feature", "properties": { "name": "Oran", "country": "Algeria", "tier": "local" }, "geometry": { "type": "Point", "coordinates": [-0.6417, 35.6971] } },
    { "type": "Feature", "properties": { "name": "Tangier", "country": "Morocco", "tier": "local" }, "geometry": { "type": "Point", "coordinates": [-5.8122, 35.7595] } },
    { "type": "Feature", "properties": { "name": "Rabat", "country": "Morocco", "tier": "local" }, "geometry": { "type": "Point", "coordinates": [-6.8498, 34.0209] } }
  ]
}
